{
"type": "FeatureCollection",
"crs": { "type": "name", "properties": { "name": "urn:ogc:def:crs:OGC:1.3:CRS84" } },
                                                                                
"features": [
{ "type": "Feature", "properties": { "NAME": "Korokoro Campsite", "status": "open", "booking": "required" }, "geometry": { "type": "Point", "coordinates": [ 176.986526, -38.793713 ] } },
{ "type": "Feature", "properties": { "NAME": "Maraunui Campsite", "status": "open", "booking": "required" }, "geometry": { "type": "Point", "coordinates": [ 176.987992, -38.768624 ] } },
{ "type": "Feature", "properties": { "NAME": "Waiopaoa Campsite", "status": "open", "booking": "required" }, "geometry": { "type": "Point", "coordinates": [ 176.99356438, -38.80898864 ] } },
{ "type": "Feature", "properties": { "NAME": "Tapuaenui Campsite", "status": "open", "booking": "required" }, "geometry": { "type": "Point", "coordinates": [ 177.051545, -38.735919 ] } },
{ "type": "Feature", "properties": { "NAME": "Waikaremoana Holiday Park", "status": "open", "booking": "not required" }, "geometry": { "type": "Point", "coordinates": [ 177.155597, -38.753444 ] } },
{ "type": "Feature", "properties": { "NAME": "Mimiha Campsite", "status": "open", "booking": "not required" }, "geometry": { "type": "Point", "coordinates": [ 176.918936, -38.648096 ] } },
{ "type": "Feature", "properties": { "NAME": "Omahuru Campsite (Ogilvies)", "status": "open", "booking": "not required" }, "geometry": { "type": "Point", "coordinates": [ 177.12062119, -38.31285978 ] } },
{ "type": "Feature", "properties": { "NAME": "Te Taita O Makoro Campsite", "status": "open", "booking": "not required" }, "geometry": { "type": "Point", "coordinates": [ 177.056446, -38.682536 ] } },
{ "type": "Feature", "properties": { "NAME": "Orangihikoia Campsite", "status": "open", "booking": "not required" }, "geometry": { "type": "Point", "coordinates": [ 177.040678, -38.668006 ] } },
{ "type": "Feature", "properties": { "NAME": "Rosie Bay Campsite", "status": "open", "booking": "not required" }, "geometry": { "type": "Point", "coordinates": [ 177.130368, -38.786025 ] } },
{ "type": "Feature", "properties": { "NAME": "Te Pakau (Eight Acre) Campsite", "status": "open", "booking": "not required" }, "geometry": { "type": "Point", "coordinates": [ 177.12079, -38.364116 ] } },
{ "type": "Feature", "properties": { "NAME": "Mokau Landing Campsite", "status": "open", "booking": "not required" }, "geometry": { "type": "Point", "coordinates": [ 177.08975, -38.732965 ] } },
{ "type": "Feature", "properties": { "NAME": "Waiharuru Campsite", "status": "open", "booking": "required" }, "geometry": { "type": "Point", "coordinates": [ 177.03257, -38.744277 ] } },
{ "type": "Feature", "properties": { "NAME": "Hopuruahine", "status": "informal", "booking": "not required" }, "geometry": { "type": "Point", "coordinates": [ 177.05611445, -38.72126762 ] } }
]
}
