{
  "type": "FeatureCollection",
  "features": [
    {
      "type": "Feature",
      "properties": {
        "NAME": "Korokoro Campsite",
        "status": "OPEN"
      },
      "geometry": {
        "type": "Point",
        "coordinates": [
          176.986526,
          -38.793713
        ]
      }
    },
    {
      "type": "Feature",
      "properties": {
        "NAME": "Maraunui Campsite",
        "status": "OPEN"
      },
      "geometry": {
        "type": "Point",
        "coordinates": [
          176.987992,
          -38.768624
        ]
      }
    },
    {
      "type": "Feature",
      "properties": {
        "NAME": "Mangamate Campsite",
        "status": "OPEN"
      },
      "geometry": {
        "type": "Point",
        "coordinates": [
          176.73001,
          -38.620161
        ]
      }
    },
    {
      "type": "Feature",
      "properties": {
        "NAME": "Waiopaoa Campsite",
        "status": "OPEN"
      },
      "geometry": {
        "type": "Point",
        "coordinates": [
          176.993186,
          -38.809085
        ]
      }
    },
    {
      "type": "Feature",
      "properties": {
        "NAME": "Tapuaenui Campsite",
        "status": "OPEN"
      },
      "geometry": {
        "type": "Point",
        "coordinates": [
          177.051545,
          -38.735919
        ]
      }
    },
    {
      "type": "Feature",
      "properties": {
        "NAME": "Waikaremoana Holiday Park",
        "status": "OPEN"
      },
      "geometry": {
        "type": "Point",
        "coordinates": [
          177.155597,
          -38.753444
        ]
      }
    },
    {
      "type": "Feature",
      "properties": {
        "NAME": "Mimiha Campsite",
        "status": "OPEN"
      },
      "geometry": {
        "type": "Point",
        "coordinates": [
          176.918936,
          -38.648096
        ]
      }
    },
    {
      "type": "Feature",
      "properties": {
        "NAME": "Omahuru Campsite (Ogilvies)",
        "status": "OPEN"
      },
      "geometry": {
        "type": "Point",
        "coordinates": [
          177.121223,
          -38.312698
        ]
      }
    },
    {
      "type": "Feature",
      "properties": {
        "NAME": "Mid Okahu Campsite",
        "status": "OPEN"
      },
      "geometry": {
        "type": "Point",
        "coordinates": [
          176.839769,
          -38.6093
        ]
      }
    },
    {
      "type": "Feature",
      "properties": {
        "NAME": "Sanctuary Campsite",
        "status": "OPEN"
      },
      "geometry": {
        "type": "Point",
        "coordinates": [
          176.727723,
          -38.663516
        ]
      }
    },
    {
      "type": "Feature",
      "properties": {
        "NAME": "Vern's Camp",
        "status": "OPEN"
      },
      "geometry": {
        "type": "Point",
        "coordinates": [
          176.680172,
          -38.722007
        ]
      }
    },
    {
      "type": "Feature",
      "properties": {
        "NAME": "Te Taita O Makoro Campsite",
        "status": "OPEN"
      },
      "geometry": {
        "type": "Point",
        "coordinates": [
          177.056446,
          -38.682536
        ]
      }
    },
    {
      "type": "Feature",
      "properties": {
        "NAME": "Orangihikoia Campsite",
        "status": "OPEN"
      },
      "geometry": {
        "type": "Point",
        "coordinates": [
          177.040678,
          -38.668006
        ]
      }
    },
    {
      "type": "Feature",
      "properties": {
        "NAME": "Rosie Bay Campsite",
        "status": "OPEN"
      },
      "geometry": {
        "type": "Point",
        "coordinates": [
          177.130368,
          -38.786025
        ]
      }
    },
    {
      "type": "Feature",
      "properties": {
        "NAME": "Te Pakau (Eight Acre) Campsite",
        "status": "OPEN"
      },
      "geometry": {
        "type": "Point",
        "coordinates": [
          177.12079,
          -38.364116
        ]
      }
    },
    {
      "type": "Feature",
      "properties": {
        "NAME": "Mokau Landing Campsite",
        "status": "OPEN"
      },
      "geometry": {
        "type": "Point",
        "coordinates": [
          177.08975,
          -38.732965
        ]
      }
    },
    {
      "type": "Feature",
      "properties": {
        "NAME": "Waiharuru Campsite",
        "status": "OPEN"
      },
      "geometry": {
        "type": "Point",
        "coordinates": [
          177.03257,
          -38.744277
        ]
      }
    }
  ]
}